"nodeID","nodeLabel","latitude","longitude","country_name","country_ISO3"
"1","Vaasa",63.0976379999998,21.6218679999998,"Finland","FIN"
"6","Pori",61.4772159999998,21.7868844999998,"Finland","FIN"
"12","Harjavalta",61.3097024999998,22.1332534999998,"Finland","FIN"
"15","Tervajoki",63.0008229999998,22.1711204999998,"Finland","FIN"
"17","Turun satama",60.4346264999998,22.2236149999998,"Finland","FIN"
"22","Turku",60.4538399999998,22.2521564999998,"Finland","FIN"
"23",,60.4589439999998,22.2677354999998,"Finland","FIN"
"24",,60.4609434999998,22.2738129999998,"Finland","FIN"
"25",,60.4628244999998,22.2792454999998,"Finland","FIN"
"26",,60.4601879999998,22.2834809999998,"Finland","FIN"
"31","Kupittaa",60.4503109999998,22.2971049999998,"Finland","FIN"
"33","Kokemäki",61.2542099999998,22.3033099999998,"Finland","FIN"
"51","Pännäinen",63.5954379999998,22.7902774999998,"Finland","FIN"
"57",,62.7962834999998,22.8346934999998,"Finland","FIN"
"58",,62.7963169999998,22.8349599999998,"Finland","FIN"
"59",,62.7957284999998,22.8360384999998,"Finland","FIN"
"61","Seinäjoki",62.7919109999998,22.8444529999998,"Finland","FIN"
"62",,62.7814199999998,22.8660174999998,"Finland","FIN"
"64","Vammala",61.3494589999998,22.8876529999998,"Finland","FIN"
"65",,62.7721304999998,22.8933634999998,"Finland","FIN"
"68",,62.7652829999998,22.9060964999998,"Finland","FIN"
"70",,62.7601154999998,22.9337834999998,"Finland","FIN"
"78","Hanko",59.8268124999998,22.9683364999998,"Finland","FIN"
"87","Lapua",62.9713094999998,23.0142369999998,"Finland","FIN"
"92","Kauhava",63.0995684999998,23.0353549999998,"Finland","FIN"
"96","Karkku",61.4434464999998,23.0494879999998,"Finland","FIN"
"99","Loimaa",60.8475029999998,23.0603749999998,"Finland","FIN"
"106","Parkano",62.0520224999998,23.0782984999998,"Finland","FIN"
"125","Salo",60.3847524999998,23.1215049999998,"Finland","FIN"
"130","Kokkola",63.8346759999998,23.1315544999998,"Finland","FIN"
"146","Lappohja",59.9041579999998,23.2368999999998,"Finland","FIN"
"158","Humppila",60.9194944999998,23.3624959999998,"Finland","FIN"
"163","Tammisaari",59.9795349999998,23.4432704999998,"Finland","FIN"
"166","Dragsvik",59.9900634999998,23.4881464999998,"Finland","FIN"
"170","Nokia",61.4818644999998,23.5011394999998,"Finland","FIN"
"181","Alavus",62.6177684999998,23.6004404999998,"Finland","FIN"
"190",,60.0604349999998,23.6425169999998,"Finland","FIN"
"191",,60.0628159999998,23.6427434999998,"Finland","FIN"
"192",,60.0645599999998,23.6514269999998,"Finland","FIN"
"194","Karjaa",60.0686984999998,23.6612509999998,"Finland","FIN"
"197",,61.5125634999998,23.6700599999998,"Finland","FIN"
"198",,61.5096059999998,23.6748489999998,"Finland","FIN"
"200",,61.5094229999998,23.6879929999998,"Finland","FIN"
"201",,61.5093159999998,23.6887569999998,"Finland","FIN"
"203",,60.0773384999998,23.7060749999998,"Finland","FIN"
"204","Ylitornio",66.3855199999998,23.7096779999998,"Finland","FIN"
"206",,60.0785669999998,23.7172854999998,"Finland","FIN"
"207",,60.0787569999998,23.7212679999998,"Finland","FIN"
"208","Tuuri",62.6039739999998,23.7348274999998,"Finland","FIN"
"209",,60.0850574999998,23.7366494999998,"Finland","FIN"
"212",,61.4602679999998,23.7502424999998,"Finland","FIN"
"217","Lempäälä",61.3132604999998,23.7545159999998,"Finland","FIN"
"221",,61.4647039999998,23.7591129999998,"Finland","FIN"
"223",,61.4665664999998,23.7639074999998,"Finland","FIN"
"224",,61.4743884999998,23.7673894999998,"Finland","FIN"
"228","Viiala",61.2112119999998,23.7711659999998,"Finland","FIN"
"230","Tampere",61.4985169999998,23.7735209999998,"Finland","FIN"
"231",,61.4946879999998,23.7736584999998,"Finland","FIN"
"232",,61.4877059999998,23.7738844999998,"Finland","FIN"
"233",,61.4803819999998,23.7744679999998,"Finland","FIN"
"234",,61.4924234999998,23.7762944999998,"Finland","FIN"
"235",,61.4907089999998,23.7764909999998,"Finland","FIN"
"237",,61.4915344999998,23.7814669999998,"Finland","FIN"
"238",,61.4915279999998,23.7817599999998,"Finland","FIN"
"244","Kolari",67.3488324999998,23.8362774999998,"Finland","FIN"
"247","Toijala",61.1705584999998,23.8614994999998,"Finland","FIN"
"250",,61.1671949999998,23.8750464999998,"Finland","FIN"
"253",,61.1663819999998,23.8782864999998,"Finland","FIN"
"254",,61.1626039999998,23.8843399999998,"Finland","FIN"
"255",,61.1648499999998,23.8864029999998,"Finland","FIN"
"257","Kannus",63.8983189999998,23.9148994999998,"Finland","FIN"
"260","Pello",66.7847709999998,23.9935524999998,"Finland","FIN"
"263","Ähtäri",62.5535144999998,24.0635924999998,"Finland","FIN"
"266","Iittala",61.0902809999998,24.1415654999998,"Finland","FIN"
"270",,65.8456499999998,24.1637944999998,"Finland","FIN"
"271","Tornio",65.8456464999998,24.1637949999998,"Finland","FIN"
"273",,65.8493614999998,24.1658339999998,"Finland","FIN"
"275",,65.8541264999998,24.1679504999998,"Finland","FIN"
"277",,65.8600669999998,24.1697344999998,"Finland","FIN"
"279",,65.8508979999998,24.1766909999998,"Finland","FIN"
"282","Eläinpuisto-Zoo",62.5402714999998,24.1932224999998,"Finland","FIN"
"284",,65.8503979999998,24.2167494999998,"Finland","FIN"
"285","Siuntio",60.1407024999998,24.2222559999998,"Finland","FIN"
"291","Myllymäki",62.5247859999998,24.2807514999998,"Finland","FIN"
"298","Parola",61.0499444999998,24.3664884999998,"Finland","FIN"
"299","Orivesi",61.6501024999998,24.3681244999998,"Finland","FIN"
"302",,61.6525144999998,24.3729574999998,"Finland","FIN"
"304","Juupajoki",61.8077279999998,24.3753909999998,"Finland","FIN"
"307",,61.6558834999998,24.3797079999998,"Finland","FIN"
"308",,61.6587589999998,24.3822269999998,"Finland","FIN"
"310",,61.6583904999998,24.3870929999998,"Finland","FIN"
"326","Kirkkonummi",60.1196109999998,24.4388159999998,"Finland","FIN"
"331",,64.6723674999998,24.4481319999998,"Finland","FIN"
"334","Haapamäki",62.2465434999998,24.4549989999998,"Finland","FIN"
"335",,62.2418039999998,24.4592689999998,"Finland","FIN"
"337",,64.6708659999998,24.4606954999998,"Finland","FIN"
"338",,62.2351559999998,24.4624014999998,"Finland","FIN"
"340",,62.2380704999998,24.4653819999998,"Finland","FIN"
"344",,64.6755994999998,24.4693729999998,"Finland","FIN"
"345","Tolsa",60.1175039999998,24.4698669999998,"Finland","FIN"
"347","Hämeenlinna",61.0025759999998,24.4787414999998,"Finland","FIN"
"349",,64.6813744999998,24.4800459999998,"Finland","FIN"
"356","Vilppula",62.0257964999998,24.5068879999998,"Finland","FIN"
"358","Jorvas",60.1378074999998,24.5126629999998,"Finland","FIN"
"359",,65.8008124999998,24.5158589999998,"Finland","FIN"
"363",,65.8011554999998,24.5254909999998,"Finland","FIN"
"364",,65.7983349999998,24.5292409999998,"Finland","FIN"
"366","Masala",60.1584929999998,24.5390354999998,"Finland","FIN"
"368","Ylivieska",64.0719229999998,24.5406114999998,"Finland","FIN"
"369",,64.0785449999998,24.5409599999998,"Finland","FIN"
"370",,65.7932674999998,24.5447959999998,"Finland","FIN"
"372",,64.0823304999998,24.5480574999998,"Finland","FIN"
"373",,64.0822789999998,24.5573874999998,"Finland","FIN"
"374",,64.0860124999998,24.5604639999998,"Finland","FIN"
"379","Kemi",65.7366929999998,24.5742984999998,"Finland","FIN"
"382","Kauklahti",60.1893064999998,24.6000129999998,"Finland","FIN"
"385","Turenki",60.9183369999998,24.6386459999998,"Finland","FIN"
"388","Espoo",60.2050589999998,24.6559844999998,"Finland","FIN"
"392","Tuomarila",60.2060504999998,24.6818019999998,"Finland","FIN"
"397","Koivuhovi",60.2070089999998,24.7022794999998,"Finland","FIN"
"399","Keuruu",62.2553754999998,24.7070079999998,"Finland","FIN"
"402","Kauniainen",60.2118744999998,24.7303724999998,"Finland","FIN"
"405","Kera",60.2160414999998,24.7535959999998,"Finland","FIN"
"407","Ryttylä",60.8184249999998,24.7580389999998,"Finland","FIN"
"412","Tervola",66.0815099999998,24.7719634999998,"Finland","FIN"
"416",,60.7404539999998,24.7808579999998,"Finland","FIN"
"417","Riihimäki",60.7352739999998,24.7814579999998,"Finland","FIN"
"418","Kilo",60.2178444999998,24.7817659999998,"Finland","FIN"
"419",,60.7712254999998,24.7847064999998,"Finland","FIN"
"420",,60.7429534999998,24.7884654999998,"Finland","FIN"
"428","Leppävaara",60.2194924999998,24.8127529999998,"Finland","FIN"
"431","Oulainen",64.2693924999998,24.8211674999998,"Finland","FIN"
"434","Mäkkylä",60.2206959999998,24.8415604999998,"Finland","FIN"
"436","Vehkala",60.2950524999998,24.8439329999998,"Finland","FIN"
"438",,60.6405134999998,24.8451494999998,"Finland","FIN"
"440","Kivistö",60.3147389999998,24.8474029999998,"Finland","FIN"
"441","Vantaankoski",60.2855934999998,24.8484024999998,"Finland","FIN"
"445","Martinlaakso",60.2782119999998,24.8527674999998,"Finland","FIN"
"446","Louhela",60.2702234999998,24.8537039999998,"Finland","FIN"
"447",,60.6334349999998,24.8543609999998,"Finland","FIN"
"449","Myyrmäki",60.2614089999998,24.8547729999998,"Finland","FIN"
"451",,60.6306169999998,24.8557344999998,"Finland","FIN"
"454","Hyvinkää",60.6313574999998,24.8577194999998,"Finland","FIN"
"456","Pitäjänmäki",60.2233459999998,24.8599949999998,"Finland","FIN"
"457","Malminkartano",60.2499064999998,24.8607529999998,"Finland","FIN"
"462","Valimo",60.2220754999998,24.8749984999998,"Finland","FIN"
"463","Kannelmäki",60.2401344999998,24.8753174999998,"Finland","FIN"
"464",,60.2221319999998,24.8797164999998,"Finland","FIN"
"465",,60.2263514999998,24.8808509999998,"Finland","FIN"
"467",,60.2217374999998,24.8832174999998,"Finland","FIN"
"468","Pohjois-Haaga",60.2303564999998,24.8834814999998,"Finland","FIN"
"472","Huopalahti",60.2184094999998,24.8932754999998,"Finland","FIN"
"477","Ilmala",60.2084619999998,24.9197594999998,"Finland","FIN"
"478",,60.2081339999998,24.9204164999998,"Finland","FIN"
"480",,60.2072384999998,24.9222104999998,"Finland","FIN"
"482",,60.2041679999998,24.9281914999998,"Finland","FIN"
"485",,60.2015534999998,24.9322139999998,"Finland","FIN"
"486",,60.2065689999998,24.9326304999998,"Finland","FIN"
"487","Pasila",60.1988339999998,24.9334589999998,"Finland","FIN"
"489",,60.2181704999998,24.9361939999998,"Finland","FIN"
"490",,60.2131329999998,24.9362889999998,"Finland","FIN"
"492",,60.2184129999998,24.9424164999998,"Finland","FIN"
"493","Helsinki",60.1714324999998,24.9425074999998,"Finland","FIN"
"494",,60.2197929999998,24.9452379999998,"Finland","FIN"
"495","Käpylä",60.2209344999998,24.9481589999998,"Finland","FIN"
"498","Aviapolis",60.3041229999998,24.9560104999998,"Finland","FIN"
"500","Nivala",63.9364114999998,24.9607039999998,"Finland","FIN"
"502","Oulunkylä",60.2278764999998,24.9655689999998,"Finland","FIN"
"504","Lentoasema",60.3145379999998,24.9673899999998,"Finland","FIN"
"505","Jokela",60.5528404999998,24.9707049999998,"Finland","FIN"
"510","Vihanti",64.4845519999998,24.9936389999998,"Finland","FIN"
"511","Pukinmäki",60.2425694999998,24.9940279999998,"Finland","FIN"
"515","Malmi",60.2515014999998,25.0112819999998,"Finland","FIN"
"516",,64.6049409999998,25.0125184999998,"Finland","FIN"
"520",,64.5951304999998,25.0214689999998,"Finland","FIN"
"521",,64.6041594999998,25.0237509999998,"Finland","FIN"
"522",,64.6055389999998,25.0246254999998,"Finland","FIN"
"523","Tapanila",60.2634094999998,25.0294779999998,"Finland","FIN"
"526","Puistola",60.2748499999998,25.0360339999998,"Finland","FIN"
"527","Leinelä",60.3228154999998,25.0385534999998,"Finland","FIN"
"530","Tikkurila",60.2920989999998,25.0441219999998,"Finland","FIN"
"532","Hiekkaharju",60.3028054999998,25.0490309999998,"Finland","FIN"
"534",,60.3110069999998,25.0528154999998,"Finland","FIN"
"535",,60.3191204999998,25.0535524999998,"Finland","FIN"
"536",,60.3133494999998,25.0551149999998,"Finland","FIN"
"537",,60.3167769999998,25.0554944999998,"Finland","FIN"
"538",,60.3194999999998,25.0569189999998,"Finland","FIN"
"541","Koivukylä",60.3233864999998,25.0599464999998,"Finland","FIN"
"542","Saunakallio",60.4871614999998,25.0658629999998,"Finland","FIN"
"543","Rekola",60.3326179999998,25.0683699999998,"Finland","FIN"
"545","Korso",60.3513384999998,25.0784944999998,"Finland","FIN"
"549","Järvenpää",60.4736484999998,25.0907939999998,"Finland","FIN"
"552","Savio",60.3809709999998,25.0977519999998,"Finland","FIN"
"553","Ruukki",64.6604294999998,25.0983319999998,"Finland","FIN"
"556","Ainola",60.4558954999998,25.1017934999998,"Finland","FIN"
"558","Kerava",60.4042679999998,25.1061414999998,"Finland","FIN"
"559",,60.4080014999998,25.1075024999998,"Finland","FIN"
"560",,60.4340924999998,25.1077449999998,"Finland","FIN"
"561",,60.4373844999998,25.1097729999998,"Finland","FIN"
"562",,60.4222964999998,25.1109844999998,"Finland","FIN"
"563",,60.4221614999998,25.1110214999998,"Finland","FIN"
"564",,60.4188314999998,25.1111534999998,"Finland","FIN"
"565",,60.4089199999998,25.1130979999998,"Finland","FIN"
"567",,60.4173719999998,25.1147644999998,"Finland","FIN"
"571","Haarajoki",60.4967729999998,25.1338014999998,"Finland","FIN"
"577","Jämsä",61.8648794999998,25.1734539999998,"Finland","FIN"
"583","Petäjävesi",62.2569679999998,25.1894704999998,"Finland","FIN"
"590","Järvelä",60.8673509999998,25.2746749999998,"Finland","FIN"
"593","Mäntsälä",60.6470384999998,25.3072394999998,"Finland","FIN"
"596","Haapajärvi",63.7544839999998,25.3344254999998,"Finland","FIN"
"597",,63.7526444999998,25.3406414999998,"Finland","FIN"
"598",,63.7521839999998,25.3420634999998,"Finland","FIN"
"599",,63.7515144999998,25.3466924999998,"Finland","FIN"
"600",,63.7491064999998,25.3501044999998,"Finland","FIN"
"603","Muurola",66.3707569999998,25.3749134999998,"Finland","FIN"
"614",,65.0019469999998,25.4705779999998,"Finland","FIN"
"616",,64.9996284999998,25.4735119999998,"Finland","FIN"
"617",,65.0052929999998,25.4755314999998,"Finland","FIN"
"618","Herrala",60.8971109999998,25.4759484999998,"Finland","FIN"
"619",,65.0080059999998,25.4795059999998,"Finland","FIN"
"620",,64.9845664999998,25.4799509999998,"Finland","FIN"
"621",,64.9847829999998,25.4821499999998,"Finland","FIN"
"623",,64.9823894999998,25.4841434999998,"Finland","FIN"
"624","Oulu",65.0113709999998,25.4844239999998,"Finland","FIN"
"625",,64.9798684999998,25.4868409999998,"Finland","FIN"
"626",,60.9039804999998,25.4890019999998,"Finland","FIN"
"627",,64.9776744999998,25.4937929999998,"Finland","FIN"
"630",,60.9162834999998,25.5062269999998,"Finland","FIN"
"635",,64.9573729999998,25.5098294999998,"Finland","FIN"
"636",,60.9239719999998,25.5120264999998,"Finland","FIN"
"638",,60.9340294999998,25.5225584999998,"Finland","FIN"
"655","Lahti",60.9763939999998,25.6575779999998,"Finland","FIN"
"657",,60.9751324999998,25.6789639999998,"Finland","FIN"
"659",,60.9726904999998,25.6939024999998,"Finland","FIN"
"662",,60.9709494999998,25.6976564999998,"Finland","FIN"
"664",,60.9708874999998,25.7044289999998,"Finland","FIN"
"665","Rovaniemi",66.4980294999998,25.7052034999998,"Finland","FIN"
"670",,62.2244409999998,25.7194009999998,"Finland","FIN"
"672",,62.2226244999998,25.7244624999998,"Finland","FIN"
"680",,62.2290664999998,25.7285114999998,"Finland","FIN"
"681",,62.2317644999998,25.7319964999998,"Finland","FIN"
"691","Jyväskylä",62.2403174999998,25.7525979999998,"Finland","FIN"
"695",,62.2465119999998,25.7657174999998,"Finland","FIN"
"697",,62.2467134999998,25.7663614999998,"Finland","FIN"
"698",,62.2471409999998,25.7701914999998,"Finland","FIN"
"699",,62.2490699999998,25.7707469999998,"Finland","FIN"
"730","Pyhäsalmi",63.6828914999998,25.9826179999998,"Finland","FIN"
"731","Muhos",64.8053964999998,25.9921294999998,"Finland","FIN"
"736","Uusikylä",60.9278174999998,26.0166154999998,"Finland","FIN"
"750","Loviisan satama",60.4097739999998,26.2558764999998,"Finland","FIN"
"752","Kausala",60.8866054999998,26.3194309999998,"Finland","FIN"
"758","Utajärvi",64.7589309999998,26.4135539999998,"Finland","FIN"
"761","Hankasalmi",62.3027624999998,26.4780409999998,"Finland","FIN"
"769","Koria",60.8478509999998,26.6031344999998,"Finland","FIN"
"770","Kiuruvesi",63.6408799999998,26.6114104999998,"Finland","FIN"
"772",,60.8580789999998,26.6297589999998,"Finland","FIN"
"779",,60.8651994999998,26.6675014999998,"Finland","FIN"
"780",,60.8634079999998,26.6762509999998,"Finland","FIN"
"781",,60.8801449999998,26.6849219999998,"Finland","FIN"
"782",,60.8803254999998,26.6854879999998,"Finland","FIN"
"783",,60.8828269999998,26.6887909999998,"Finland","FIN"
"785",,60.8647354999998,26.6931679999998,"Finland","FIN"
"786",,60.8847244999998,26.6963594999998,"Finland","FIN"
"787",,60.8941009999998,26.7007019999998,"Finland","FIN"
"788",,60.9016399999998,26.7026449999998,"Finland","FIN"
"789",,60.8932454999998,26.7046334999998,"Finland","FIN"
"790",,60.8976539999998,26.7047344999998,"Finland","FIN"
"791","Kouvola",60.8653189999998,26.7052489999998,"Finland","FIN"
"799",,60.8685799999998,26.7507694999998,"Finland","FIN"
"800",,60.8283139999998,26.7566794999998,"Finland","FIN"
"801",,60.8689099999998,26.7574664999998,"Finland","FIN"
"802",,60.8531844999998,26.7623469999998,"Finland","FIN"
"806",,60.8695044999998,26.7747714999998,"Finland","FIN"
"811",,60.8698664999998,26.7859094999998,"Finland","FIN"
"821","Inkeroinen",60.6967674999998,26.8392019999998,"Finland","FIN"
"823","Vaala",64.5579989999998,26.8425829999998,"Finland","FIN"
"826","Mäntyharju",61.4213854999998,26.8815019999998,"Finland","FIN"
"828","Runni",63.6020489999998,26.8863839999998,"Finland","FIN"
"832","Kymi",60.5389509999998,26.9067654999998,"Finland","FIN"
"836","Kotka",60.4642914999998,26.9275084999998,"Finland","FIN"
"837",,60.5893884999998,26.9548679999998,"Finland","FIN"
"839",,60.5863054999998,26.9590214999998,"Finland","FIN"
"840",,60.5832799999998,26.9610559999998,"Finland","FIN"
"841",,60.5829929999998,26.9676824999998,"Finland","FIN"
"848","Suonenjoki",62.6237164999998,27.1249374999998,"Finland","FIN"
"855",,60.5324369999998,27.1512229999998,"Finland","FIN"
"856",,60.5328134999998,27.1533434999998,"Finland","FIN"
"858",,60.5332744999998,27.1546069999998,"Finland","FIN"
"867",,62.2932029999998,27.1637804999998,"Finland","FIN"
"871",,62.2959869999998,27.1671604999998,"Finland","FIN"
"873","Pieksämäki",62.3013044999998,27.1676374999998,"Finland","FIN"
"875",,62.2813894999998,27.1679679999998,"Finland","FIN"
"876",,62.3086674999998,27.1690239999998,"Finland","FIN"
"878",,62.3175574999998,27.1728244999998,"Finland","FIN"
"881",,62.3134164999998,27.1755239999998,"Finland","FIN"
"883",,62.3346569999998,27.1827639999998,"Finland","FIN"
"886",,63.5776499999998,27.1906979999998,"Finland","FIN"
"888",,63.5778999999998,27.1951294999998,"Finland","FIN"
"890",,63.5735584999998,27.1966004999998,"Finland","FIN"
"891",,63.5703959999998,27.1977384999998,"Finland","FIN"
"893","Iisalmi",63.5603214999998,27.2010299999998,"Finland","FIN"
"902","Mikkeli",61.6878604999998,27.2779884999998,"Finland","FIN"
"911","Lapinlahti",63.3606719999998,27.3935539999998,"Finland","FIN"
"914",,66.7160064999998,27.4015529999998,"Finland","FIN"
"915","Kemijärvi",66.7242049999998,27.4037469999998,"Finland","FIN"
"917",,66.7203039999998,27.4043879999998,"Finland","FIN"
"918",,66.7174399999998,27.4118659999998,"Finland","FIN"
"920","Sukeva",63.8646969999998,27.4223914999998,"Finland","FIN"
"936",,63.0860919999998,27.6560194999998,"Finland","FIN"
"937",,63.0818954999998,27.6645574999998,"Finland","FIN"
"938",,63.0778324999998,27.6658244999998,"Finland","FIN"
"939",,63.0857549999998,27.6659914999998,"Finland","FIN"
"940","Siilinjärvi",63.0750684999998,27.6665249999998,"Finland","FIN"
"943",,62.2120614999998,27.6786104999998,"Finland","FIN"
"944","Kuopio",62.8972324999998,27.6807019999998,"Finland","FIN"
"945",,62.2086829999998,27.6963909999998,"Finland","FIN"
"946",,62.2074844999998,27.7040059999998,"Finland","FIN"
"947",,62.2099224999998,27.7052039999998,"Finland","FIN"
"952","Kajaani",64.2198604999998,27.7424209999998,"Finland","FIN"
"955",,60.9437479999998,27.7571999999998,"Finland","FIN"
"958",,60.9479154999998,27.7865909999998,"Finland","FIN"
"959",,60.9479694999998,27.7984114999998,"Finland","FIN"
"961",,60.9518029999998,27.8141454999998,"Finland","FIN"
"962","Paltamo",64.4006259999998,27.8222909999998,"Finland","FIN"
"965",,62.3103074999998,27.8564009999998,"Finland","FIN"
"966",,62.3105289999998,27.8569549999998,"Finland","FIN"
"967",,62.3087589999998,27.8585279999998,"Finland","FIN"
"968",,62.3173709999998,27.8586614999998,"Finland","FIN"
"969",,62.3144949999998,27.8620954999998,"Finland","FIN"
"970",,62.3055149999998,27.8624469999998,"Finland","FIN"
"971",,62.3144149999998,27.8679229999998,"Finland","FIN"
"972","Varkaus",62.3123079999998,27.8738014999998,"Finland","FIN"
"982",,64.3740039999998,28.0671784999998,"Finland","FIN"
"983",,64.3642409999998,28.0851779999998,"Finland","FIN"
"987",,64.3488849999998,28.0982229999998,"Finland","FIN"
"989",,64.3438154999998,28.1031554999998,"Finland","FIN"
"991",,64.3649019999998,28.1086809999998,"Finland","FIN"
"992",,64.3679559999998,28.1112149999998,"Finland","FIN"
"993","Kontiomäki",64.3385894999998,28.1136204999998,"Finland","FIN"
"994",,64.3302239999998,28.1304669999998,"Finland","FIN"
"996",,64.3254174999998,28.1341689999998,"Finland","FIN"
"1000",,64.3120719999998,28.1677059999998,"Finland","FIN"
"1003","Lappeenranta",61.0479814999998,28.1952239999998,"Finland","FIN"
"1006",,61.0695859999998,28.2163979999998,"Finland","FIN"
"1007",,61.0682464999998,28.2225949999998,"Finland","FIN"
"1008",,61.0686449999998,28.2273524999998,"Finland","FIN"
"1010",,61.0667944999998,28.2301979999998,"Finland","FIN"
"1015",,61.0643704999998,28.2561759999998,"Finland","FIN"
"1016",,61.0641494999998,28.2562564999998,"Finland","FIN"
"1017",,61.0648239999998,28.2572854999998,"Finland","FIN"
"1018",,61.0708529999998,28.2659579999998,"Finland","FIN"
"1031","Joutseno",61.1203439999998,28.4884199999998,"Finland","FIN"
"1034","Heinävesi",62.3825589999998,28.6435584999998,"Finland","FIN"
"1037","Imatra",61.1962304999998,28.7768469999998,"Finland","FIN"
"1039",,61.2015429999998,28.8064929999998,"Finland","FIN"
"1040",,61.1999859999998,28.8068209999998,"Finland","FIN"
"1041",,61.2037014999998,28.8104809999998,"Finland","FIN"
"1042",,61.2136539999998,28.8133054999998,"Finland","FIN"
"1046","Savonlinna",61.8797869999998,28.8550684999998,"Finland","FIN"
"1055","Vihtari",62.3807724999998,29.0293369999998,"Finland","FIN"
"1058","Nurmes",63.5409344999998,29.1375769999998,"Finland","FIN"
"1060",,62.6472124999998,29.2073074999998,"Finland","FIN"
"1061",,62.6466619999998,29.2181184999998,"Finland","FIN"
"1062",,62.6461804999998,29.2195124999998,"Finland","FIN"
"1063","Viinijärvi",62.6415714999998,29.2371624999998,"Finland","FIN"
"1066","Retretti",61.8034739999998,29.2934309999998,"Finland","FIN"
"1073","Simpele",61.4247899999998,29.3711924999998,"Finland","FIN"
"1080",,61.5812234999998,29.4957394999998,"Finland","FIN"
"1082",,61.5726164999998,29.4973454999998,"Finland","FIN"
"1084",,61.5763289999998,29.4978884999998,"Finland","FIN"
"1085",,61.5797284999998,29.5006174999998,"Finland","FIN"
"1086","Parikkala",61.5586714999998,29.5028004999998,"Finland","FIN"
"1108","Joensuu",62.5996524999998,29.7767639999998,"Finland","FIN"
"1111",,62.6205619999998,29.7799999999998,"Finland","FIN"
"1113",,62.6143974999998,29.7803779999998,"Finland","FIN"
"1115",,62.6166474999998,29.7826219999998,"Finland","FIN"
"1117","Kesälahti",61.8874024999998,29.8028769999998,"Finland","FIN"
"1119",,62.6419604999998,29.8082874999998,"Finland","FIN"
"1128","Vartius",64.5458169999998,29.9898564999998,"Finland","FIN"
"1130","Lieksa",63.3182129999998,30.0161794999998,"Finland","FIN"
"1133","Kitee",62.1428064999998,30.0490409999998,"Finland","FIN"
"1135",,62.3289129999998,30.1166184999998,"Finland","FIN"
"1136",,62.3154854999998,30.1216244999998,"Finland","FIN"
"1137",,62.3106449999998,30.1233169999998,"Finland","FIN"
"1138",,62.3136389999998,30.1243114999998,"Finland","FIN"
"1139",,62.9411009999998,30.2145219999998,"Finland","FIN"
"1140",,62.9290944999998,30.2263424999998,"Finland","FIN"
"1141",,62.9277654999998,30.2339579999998,"Finland","FIN"
"1143",,62.9136604999998,30.2399534999998,"Finland","FIN"
"1144","Uimaharju",62.9125244999998,30.2415454999998,"Finland","FIN"
"1145",,62.9152284999998,30.2449174999998,"Finland","FIN"
"1146",,62.9196924999998,30.2453799999998,"Finland","FIN"
"1153","Niirala",62.1750204999998,30.6001449999998,"Finland","FIN"
